#version,serial,flight,call,time,state,state_name,acceleration,pressure,altitude,height,speed,temperature,drogue_voltage,main_voltage,battery_voltage,accel_x,accel_y,accel_z,gyro_roll,gyro_pitch,gyro_yaw,mag_x,mag_y,mag_z,tilt,pyro,igniter_a,igniter_b,igniter_c,igniter_d,connected,locked,nsat,latitude,longitude,altitude,year,month,day,hour,minute,second,pad_dist,pad_range,pad_az,pad_el,pdop,hdop,vdop,sat01,sat02,sat03,sat04,sat05,sat06,sat07,sat08,sat09,sat10,sat11,sat12,sat13,sat14,sat15,sat16,sat17,sat18,sat19,sat20,sat21,sat22,sat23,sat24,sat25,sat26,sat27,sat28,sat29,sat30,sat31,sat32
6, 6583, 5,,    -0.30, 3,   boost,    0.98,  97779.00,  299.45,    0.77,     NaN, 36.3, 4.12, 4.11, 4.12,   0.00,   0.00,   0.00,   0.00,  -0.06,   0.00,   0.00,   0.00,   0.00,    NaN, 4.12, 0.00, 0.00, 0.00, 0.00, 1, 1, 11,  47.9868668, -81.8484808,   368.0, 2025,  8, 21, 18, 11, 46,        0,        0,   0,   0,   1.5,   0.8,   1.2,  0, 39,  0,  0,  0,  0,  0, 36,  0, 35,  0,  0,  0,  9, 38,  0,  0, 31,  0,  0,  0, 35, 32, 35,  0,  0, 32,  0,  0,  0,  0, 34
6, 6583, 5,,    -0.29, 3,   boost,   -1.96,  97791.00,  298.42,   -0.26,     NaN, 36.2, 4.12, 4.11, 4.12,   0.00,   0.00,   0.00,  66.23,  66.41,   0.00,   0.00,   0.00,   0.00,    NaN, 4.12, 0.00, 0.00, 0.00, 0.00, 1, 1, 11,  47.9868668, -81.8484808,   368.0, 2025,  8, 21, 18, 11, 46,        0,        0,   0,   0,   1.5,   0.8,   1.2,  0, 39,  0,  0,  0,  0,  0, 36,  0, 35,  0,  0,  0,  9, 38,  0,  0, 31,  0,  0,  0, 35, 32, 35,  0,  0, 32,  0,  0,  0,  0, 34
6, 6583, 5,,    -0.28, 3,   boost,   -0.49,  97793.00,  298.25,   -0.43,     NaN, 36.2, 4.12, 4.11, 4.12,   0.00,   0.00,   0.00,  66.23,  66.41,   0.00,   0.00,   0.00,   0.00,    NaN, 4.12, 0.00, 0.00, 0.00, 0.00, 1, 1, 11,  47.9868668, -81.8484808,   368.0, 2025,  8, 21, 18, 11, 46,        0,        0,   0,   0,   1.5,   0.8,   1.2,  0, 39,  0,  0,  0,  0,  0, 36,  0, 35,  0,  0,  0,  9, 38,  0,  0, 31,  0,  0,  0, 35, 32, 35,  0,  0, 32,  0,  0,  0,  0, 34
6, 6583, 5,,    -0.27, 3,   boost,   -0.00,  97785.00,  298.94,    0.26,     NaN, 36.3, 4.12, 4.11, 4.12,   0.00,   0.00,   0.00,  66.23,  66.41,   0.00,   0.00,   0.00,   0.00,    NaN, 4.12, 0.00, 0.00, 0.00, 0.00, 1, 1, 11,  47.9868668, -81.8484808,   368.0, 2025,  8, 21, 18, 11, 46,        0,        0,   0,   0,   1.5,   0.8,   1.2,  0, 39,  0,  0,  0,  0,  0, 36,  0, 35,  0,  0,  0,  9, 38,  0,  0, 31,  0,  0,  0, 35, 32, 35,  0,  0, 32,  0,  0,  0,  0, 34
6, 6583, 5,,    -0.26, 3,   boost,    2.94,  97790.00,  298.51,   -0.17,     NaN, 36.2, 4.12, 4.11, 4.12,   0.00,   0.00,   0.00,  66.23,  66.41,   0.00,   0.00,   0.00,   0.00,    NaN, 4.12, 0.00, 0.00, 0.00, 0.00, 1, 1, 11,  47.9868668, -81.8484808,   368.0, 2025,  8, 21, 18, 11, 46,        0,        0,   0,   0,   1.5,   0.8,   1.2,  0, 39,  0,  0,  0,  0,  0, 36,  0, 35,  0,  0,  0,  9, 38,  0,  0, 31,  0,  0,  0, 35, 32, 35,  0,  0, 32,  0,  0,  0,  0, 34
6, 6583, 5,,    -0.25, 3,   boost,   -0.98,  97799.00,  297.74,   -0.94,     NaN, 36.3, 4.12, 4.11, 4.12,   0.00,   0.00,   0.00,  66.23,  66.41,   0.00,   0.00,   0.00,   0.00,    NaN, 4.12, 0.00, 0.00, 0.00, 0.00, 1, 1, 11,  47.9868668, -81.8484808,   368.0, 2025,  8, 21, 18, 11, 46,        0,        0,   0,   0,   1.5,   0.8,   1.2,  0, 39,  0,  0,  0,  0,  0, 36,  0, 35,  0,  0,  0,  9, 38,  0,  0, 31,  0,  0,  0, 35, 32, 35,  0,  0, 32,  0,  0,  0,  0, 34
6, 6583, 5,,    -0.24, 3,   boost,    2.94,  97780.00,  299.36,    0.69,     NaN, 36.3, 4.12, 4.11, 4.12,   0.00,   0.00,   0.00,  66.23,  66.41,   0.00,   0.00,   0.00,   0.00,    NaN, 4.12, 0.00, 0.00, 0.00, 0.00, 1, 1, 11,  47.9868668, -81.8484808,   368.0, 2025,  8, 21, 18, 11, 46,        0,        0,   0,   0,   1.5,   0.8,   1.2,  0, 39,  0,  0,  0,  0,  0, 36,  0, 35,  0,  0,  0,  9, 38,  0,  0, 31,  0,  0,  0, 35, 32, 35,  0,  0, 32,  0,  0,  0,  0, 34
6, 6583, 5,,    -0.23, 3,   boost,    1.47,  97791.00,  298.42,   -0.26,     NaN, 36.3, 4.12, 4.11, 4.12,   0.00,   0.00,   0.00,  66.23,  66.41,   0.00,   0.00,   0.00,   0.00,    NaN, 4.12, 0.00, 0.00, 0.00, 0.00, 1, 1, 11,  47.9868668, -81.8484808,   368.0, 2025,  8, 21, 18, 11, 46,        0,        0,   0,   0,   1.5,   0.8,   1.2,  0, 39,  0,  0,  0,  0,  0, 36,  0, 35,  0,  0,  0,  9, 38,  0,  0, 31,  0,  0,  0, 35, 32, 35,  0,  0, 32,  0,  0,  0,  0, 34
6, 6583, 5,,    -0.22, 3,   boost,   -0.98,  97799.00,  297.74,   -0.94,     NaN, 36.2, 4.12, 4.11, 4.12,   0.00,   0.00,   0.00,  66.23,  66.41,   0.00,   0.00,   0.00,   0.00,    NaN, 4.12, 0.00, 0.00, 0.00, 0.00, 1, 1, 11,  47.9868668, -81.8484808,   368.0, 2025,  8, 21, 18, 11, 46,        0,        0,   0,   0,   1.5,   0.8,   1.2,  0, 39,  0,  0,  0,  0,  0, 36,  0, 35,  0,  0,  0,  9, 38,  0,  0, 31,  0,  0,  0, 35, 32, 35,  0,  0, 32,  0,  0,  0,  0, 34
6, 6583, 5,,    -0.21, 3,   boost,   -0.49,  97789.00,  298.59,   -0.09,     NaN, 36.3, 4.12, 4.11, 4.12,   0.00,   0.00,   0.00,  66.23,  66.41,   0.00,   0.00,   0.00,   0.00,    NaN, 4.12, 0.00, 0.00, 0.00, 0.00, 1, 1, 11,  47.9868668, -81.8484808,   368.0, 2025,  8, 21, 18, 11, 46,        0,        0,   0,   0,   1.5,   0.8,   1.2,  0, 39,  0,  0,  0,  0,  0, 36,  0, 35,  0,  0,  0,  9, 38,  0,  0, 31,  0,  0,  0, 35, 32, 35,  0,  0, 32,  0,  0,  0,  0, 34
6, 6583, 5,,    -0.20, 3,   boost,   -0.98,  97798.00,  297.82,   -0.86,     NaN, 36.3, 4.12, 4.11, 4.12,   0.00,   0.00,   0.00,  66.23,  66.41,   0.00,   0.00,   0.00,   0.00,    NaN, 4.12, 0.00, 0.00, 0.00, 0.00, 1, 1, 11,  47.9868668, -81.8484808,   368.0, 2025,  8, 21, 18, 11, 46,        0,        0,   0,   0,   1.5,   0.8,   1.2,  0, 39,  0,  0,  0,  0,  0, 36,  0, 35,  0,  0,  0,  9, 38,  0,  0, 31,  0,  0,  0, 35, 32, 35,  0,  0, 32,  0,  0,  0,  0, 34
6, 6583, 5,,    -0.19, 3,   boost,    0.49,  97782.00,  299.19,    0.51,     NaN, 36.2, 4.12, 4.11, 4.12,   0.00,   0.00,   0.00,  66.23,  66.41,   0.00,   0.00,   0.00,   0.00,    NaN, 4.12, 0.00, 0.00, 0.00, 0.00, 1, 1, 11,  47.9868668, -81.8484808,   368.0, 2025,  8, 21, 18, 11, 46,        0,        0,   0,   0,   1.5,   0.8,   1.2,  0, 39,  0,  0,  0,  0,  0, 36,  0, 35,  0,  0,  0,  9, 38,  0,  0, 31,  0,  0,  0, 35, 32, 35,  0,  0, 32,  0,  0,  0,  0, 34
6, 6583, 5,,    -0.18, 3,   boost,    2.94,  97779.00,  299.45,    0.77,     NaN, 36.3, 4.12, 4.11, 4.12,   0.00,   0.00,   0.00,  66.23,  66.41,   0.00,   0.00,   0.00,   0.00,    NaN, 4.12, 0.00, 0.00, 0.00, 0.00, 1, 1, 11,  47.9868668, -81.8484808,   368.0, 2025,  8, 21, 18, 11, 46,        0,        0,   0,   0,   1.5,   0.8,   1.2,  0, 39,  0,  0,  0,  0,  0, 36,  0, 35,  0,  0,  0,  9, 38,  0,  0, 31,  0,  0,  0, 35, 32, 35,  0,  0, 32,  0,  0,  0,  0, 34
6, 6583, 5,,    -0.17, 3,   boost,    0.98,  97801.00,  297.56,   -1.11,     NaN, 36.3, 4.12, 4.11, 4.12,   0.00,   0.00,   0.00,  66.23,  66.41,   0.00,   0.00,   0.00,   0.00,    NaN, 4.12, 0.00, 0.00, 0.00, 0.00, 1, 1, 11,  47.9868668, -81.8484808,   368.0, 2025,  8, 21, 18, 11, 46,        0,        0,   0,   0,   1.5,   0.8,   1.2,  0, 39,  0,  0,  0,  0,  0, 36,  0, 35,  0,  0,  0,  9, 38,  0,  0, 31,  0,  0,  0, 35, 32, 35,  0,  0, 32,  0,  0,  0,  0, 34
6, 6583, 5,,    -0.16, 3,   boost,   -1.47,  97798.00,  297.82,   -0.86,     NaN, 36.3, 4.12, 4.11, 4.12,   0.00,   0.00,   0.00,  66.23,  66.41,   0.00,   0.00,   0.00,   0.00,    NaN, 4.12, 0.00, 0.00, 0.00, 0.00, 1, 1, 11,  47.9868668, -81.8484808,   368.0, 2025,  8, 21, 18, 11, 46,        0,        0,   0,   0,   1.5,   0.8,   1.2,  0, 39,  0,  0,  0,  0,  0, 36,  0, 35,  0,  0,  0,  9, 38,  0,  0, 31,  0,  0,  0, 35, 32, 35,  0,  0, 32,  0,  0,  0,  0, 34
6, 6583, 5,,    -0.15, 3,   boost,   -0.98,  97786.00,  298.85,    0.17,     NaN, 36.3, 4.12, 4.11, 4.12,   0.00,   0.00,   0.00,  66.23,  66.41,   0.00,   0.00,   0.00,   0.00,    NaN, 4.12, 0.00, 0.00, 0.00, 0.00, 1, 1, 11,  47.9868668, -81.8484808,   368.0, 2025,  8, 21, 18, 11, 46,        0,        0,   0,   0,   1.5,   0.8,   1.2,  0, 39,  0,  0,  0,  0,  0, 36,  0, 35,  0,  0,  0,  9, 38,  0,  0, 31,  0,  0,  0, 35, 32, 35,  0,  0, 32,  0,  0,  0,  0, 34
6, 6583, 5,,    -0.14, 3,   boost,   -0.98,  97783.00,  299.11,    0.43,     NaN, 36.3, 4.12, 4.11, 4.12,   0.00,   0.00,   0.00,  66.23,  66.41,   0.00,   0.00,   0.00,   0.00,    NaN, 4.12, 0.00, 0.00, 0.00, 0.00, 1, 1, 11,  47.9868668, -81.8484808,   368.0, 2025,  8, 21, 18, 11, 46,        0,        0,   0,   0,   1.5,   0.8,   1.2,  0, 39,  0,  0,  0,  0,  0, 36,  0, 35,  0,  0,  0,  9, 38,  0,  0, 31,  0,  0,  0, 35, 32, 35,  0,  0, 32,  0,  0,  0,  0, 34
6, 6583, 5,,    -0.13, 3,   boost,   -0.98,  97791.00,  298.42,   -0.26,     NaN, 36.3, 4.12, 4.11, 4.12,   0.00,   0.00,   0.00,  66.23,  66.41,   0.00,   0.00,   0.00,   0.00,    NaN, 4.12, 0.00, 0.00, 0.00, 0.00, 1, 1, 11,  47.9868668, -81.8484808,   368.0, 2025,  8, 21, 18, 11, 46,        0,        0,   0,   0,   1.5,   0.8,   1.2,  0, 39,  0,  0,  0,  0,  0, 36,  0, 35,  0,  0,  0,  9, 38,  0,  0, 31,  0,  0,  0, 35, 32, 35,  0,  0, 32,  0,  0,  0,  0, 34
6, 6583, 5,,    -0.12, 3,   boost,   -1.96,  97796.00,  297.99,   -0.69,     NaN, 36.2, 4.12, 4.11, 4.12,   0.00,   0.00,   0.00,  66.23,  66.41,   0.00,   0.00,   0.00,   0.00,    NaN, 4.12, 0.00, 0.00, 0.00, 0.00, 1, 1, 11,  47.9868668, -81.8484808,   368.0, 2025,  8, 21, 18, 11, 46,        0,        0,   0,   0,   1.5,   0.8,   1.2,  0, 39,  0,  0,  0,  0,  0, 36,  0, 35,  0,  0,  0,  9, 38,  0,  0, 31,  0,  0,  0, 35, 32, 35,  0,  0, 32,  0,  0,  0,  0, 34
6, 6583, 5,,    -0.11, 3,   boost,   -0.00,  97787.00,  298.76,    0.09,     NaN, 36.3, 4.12, 4.11, 4.12,   0.00,   0.00,   0.00,  66.23,  66.41,   0.00,   0.00,   0.00,   0.00,    NaN, 4.12, 0.00, 0.00, 0.00, 0.00, 1, 1, 11,  47.9868668, -81.8484808,   368.0, 2025,  8, 21, 18, 11, 46,        0,        0,   0,   0,   1.5,   0.8,   1.2,  0, 39,  0,  0,  0,  0,  0, 36,  0, 35,  0,  0,  0,  9, 38,  0,  0, 31,  0,  0,  0, 35, 32, 35,  0,  0, 32,  0,  0,  0,  0, 34
6, 6583, 5,,    -0.10, 3,   boost,    0.98,  97794.00,  298.16,   -0.51,     NaN, 36.3, 4.12, 4.11, 4.12,   0.00,   0.00,   0.00,  66.23,  66.41,   0.00,   0.00,   0.00,   0.00,    NaN, 4.12, 0.00, 0.00, 0.00, 0.00, 1, 1, 11,  47.9868668, -81.8484808,   368.0, 2025,  8, 21, 18, 11, 46,        0,        0,   0,   0,   1.5,   0.8,   1.2,  0, 39,  0,  0,  0,  0,  0, 36,  0, 35,  0,  0,  0,  9, 38,  0,  0, 31,  0,  0,  0, 35, 32, 35,  0,  0, 32,  0,  0,  0,  0, 34
6, 6583, 5,,    -0.09, 3,   boost,   -1.47,  97803.00,  297.39,   -1.28,     NaN, 36.2, 4.12, 4.11, 4.12,   0.00,   0.00,   0.00,  66.23,  66.41,   0.00,   0.00,   0.00,   0.00,    NaN, 4.12, 0.00, 0.00, 0.00, 0.00, 1, 1, 11,  47.9868668, -81.8484808,   368.0, 2025,  8, 21, 18, 11, 46,        0,        0,   0,   0,   1.5,   0.8,   1.2,  0, 39,  0,  0,  0,  0,  0, 36,  0, 35,  0,  0,  0,  9, 38,  0,  0, 31,  0,  0,  0, 35, 32, 35,  0,  0, 32,  0,  0,  0,  0, 34
6, 6583, 5,,    -0.08, 3,   boost,   -3.92,  97792.00,  298.34,   -0.34,     NaN, 36.2, 4.12, 4.11, 4.12,   0.00,   0.00,   0.00,  66.23,  66.41,   0.00,   0.00,   0.00,   0.00,    NaN, 4.12, 0.00, 0.00, 0.00, 0.00, 1, 1, 11,  47.9868668, -81.8484808,   368.0, 2025,  8, 21, 18, 11, 46,        0,        0,   0,   0,   1.5,   0.8,   1.2,  0, 39,  0,  0,  0,  0,  0, 36,  0, 35,  0,  0,  0,  9, 38,  0,  0, 31,  0,  0,  0, 35, 32, 35,  0,  0, 32,  0,  0,  0,  0, 34
6, 6583, 5,,    -0.07, 3,   boost,    8.83,  97818.00,  296.11,   -2.57,     NaN, 36.3, 4.12, 4.11, 4.12,   0.00,   0.00,   0.00,  66.23,  66.41,   0.00,   0.00,   0.00,   0.00,    NaN, 4.12, 0.00, 0.00, 0.00, 0.00, 1, 1, 11,  47.9868668, -81.8484808,   368.0, 2025,  8, 21, 18, 11, 46,        0,        0,   0,   0,   1.5,   0.8,   1.2,  0, 39,  0,  0,  0,  0,  0, 36,  0, 35,  0,  0,  0,  9, 38,  0,  0, 31,  0,  0,  0, 35, 32, 35,  0,  0, 32,  0,  0,  0,  0, 34
6, 6583, 5,,    -0.06, 3,   boost,   80.90,  97897.00,  289.34,   -9.33,     NaN, 36.3, 4.12, 4.11, 4.12,   0.00,   0.00,   0.00,  66.23,  66.41,   0.00,   0.00,   0.00,   0.00,    NaN, 4.12, 0.00, 0.00, 0.00, 0.00, 1, 1, 11,  47.9868668, -81.8484808,   368.0, 2025,  8, 21, 18, 11, 46,        0,        0,   0,   0,   1.5,   0.8,   1.2,  0, 39,  0,  0,  0,  0,  0, 36,  0, 35,  0,  0,  0,  9, 38,  0,  0, 31,  0,  0,  0, 35, 32, 35,  0,  0, 32,  0,  0,  0,  0, 34
6, 6583, 5,,    -0.05, 3,   boost,   61.29,  97732.00,  303.48,    4.80,     NaN, 36.2, 4.12, 4.11, 4.12,   0.00,   0.00,   0.00,  66.23,  66.41,   0.00,   0.00,   0.00,   0.00,    NaN, 4.12, 0.00, 0.00, 0.00, 0.00, 1, 1, 11,  47.9868668, -81.8484808,   368.0, 2025,  8, 21, 18, 11, 46,        0,        0,   0,   0,   1.5,   0.8,   1.2,  0, 39,  0,  0,  0,  0,  0, 36,  0, 35,  0,  0,  0,  9, 38,  0,  0, 31,  0,  0,  0, 35, 32, 35,  0,  0, 32,  0,  0,  0,  0, 34
6, 6583, 5,,    -0.04, 3,   boost,   75.02,  97797.00,  297.91,   -0.77,     NaN, 36.3, 4.12, 4.11, 4.12,   0.00,   0.00,   0.00,  66.23,  66.41,   0.00,   0.00,   0.00,   0.00,    NaN, 4.12, 0.00, 0.00, 0.00, 0.00, 1, 1, 11,  47.9868668, -81.8484808,   368.0, 2025,  8, 21, 18, 11, 46,        0,        0,   0,   0,   1.5,   0.8,   1.2,  0, 39,  0,  0,  0,  0,  0, 36,  0, 35,  0,  0,  0,  9, 38,  0,  0, 31,  0,  0,  0, 35, 32, 35,  0,  0, 32,  0,  0,  0,  0, 34
6, 6583, 5,,    -0.03, 3,   boost,   79.92,  97746.00,  302.28,    3.60,     NaN, 36.2, 4.12, 4.11, 4.12,   0.00,   0.00,   0.00,  66.23,  66.41,   0.00,   0.00,   0.00,   0.00,    NaN, 4.12, 0.00, 0.00, 0.00, 0.00, 1, 1, 11,  47.9868668, -81.8484808,   368.0, 2025,  8, 21, 18, 11, 46,        0,        0,   0,   0,   1.5,   0.8,   1.2,  0, 39,  0,  0,  0,  0,  0, 36,  0, 35,  0,  0,  0,  9, 38,  0,  0, 31,  0,  0,  0, 35, 32, 35,  0,  0, 32,  0,  0,  0,  0, 34
6, 6583, 5,,    -0.02, 3,   boost,   77.96,  97758.00,  301.25,    2.57,     NaN, 36.3, 4.12, 4.11, 4.12,   0.00,   0.00,   0.00,  66.23,  66.41,   0.00,   0.00,   0.00,   0.00,    NaN, 4.12, 0.00, 0.00, 0.00, 0.00, 1, 1, 11,  47.9868668, -81.8484808,   368.0, 2025,  8, 21, 18, 11, 46,        0,        0,   0,   0,   1.5,   0.8,   1.2,  0, 39,  0,  0,  0,  0,  0, 36,  0, 35,  0,  0,  0,  9, 38,  0,  0, 31,  0,  0,  0, 35, 32, 35,  0,  0, 32,  0,  0,  0,  0, 34
6, 6583, 5,,    -0.01, 3,   boost,   75.51,  97765.00,  300.65,    1.97,     NaN, 36.3, 4.12, 4.11, 4.12,   0.00,   0.00,   0.00,  66.23,  66.41,   0.00,   0.00,   0.00,   0.00,    NaN, 4.12, 0.00, 0.00, 0.00, 0.00, 1, 1, 11,  47.9868668, -81.8484808,   368.0, 2025,  8, 21, 18, 11, 46,        0,        0,   0,   0,   1.5,   0.8,   1.2,  0, 39,  0,  0,  0,  0,  0, 36,  0, 35,  0,  0,  0,  9, 38,  0,  0, 31,  0,  0,  0, 35, 32, 35,  0,  0, 32,  0,  0,  0,  0, 34
6, 6583, 5,,     0.00, 3,   boost,   78.94,  97758.00,  301.25,    2.57,     NaN, 36.3, 4.12, 4.11, 4.12,   0.00,   0.00,   0.00,  66.23,  66.41,   0.00,   0.00,   0.00,   0.00,    NaN, 4.12, 0.00, 0.00, 0.00, 0.00, 1, 1, 11,  47.9868668, -81.8484808,   368.0, 2025,  8, 21, 18, 11, 46,        0,        0,   0,   0,   1.5,   0.8,   1.2,  0, 39,  0,  0,  0,  0,  0, 36,  0, 35,  0,  0,  0,  9, 38,  0,  0, 31,  0,  0,  0, 35, 32, 35,  0,  0, 32,  0,  0,  0,  0, 34
6, 6583, 5,,     0.00, 3,   boost,   78.94,  97758.00,  301.25,    2.57,     NaN, 36.3, 4.12, 4.11, 4.12,   0.00,   0.00,   0.00,  66.23,  66.41,   0.00,   0.00,   0.00,   0.00,    NaN, 4.12, 0.00, 0.00, 0.00, 0.00, 1, 1, 11,  47.9868668, -81.8484808,   368.0, 2025,  8, 21, 18, 11, 46,        0,        0,   0,   0,   1.5,   0.8,   1.2,  0, 39,  0,  0,  0,  0,  0, 36,  0, 35,  0,  0,  0,  9, 38,  0,  0, 31,  0,  0,  0, 35, 32, 35,  0,  0, 32,  0,  0,  0,  0, 34
6, 6583, 5,,     0.00, 3,   boost,   78.94,  97758.00,  301.25,    2.57,     NaN, 36.3, 4.12, 4.11, 4.12,   0.00,   0.00,   0.00,  66.23,  66.41,   0.00,   0.00,   0.00,   0.00,    NaN, 4.12, 0.00, 0.00, 0.00, 0.00, 1, 1, 11,  47.9868668, -81.8484808,   368.0, 2025,  8, 21, 18, 11, 46,        0,        0,   0,   0,   1.5,   0.8,   1.2,  0, 39,  0,  0,  0,  0,  0, 36,  0, 35,  0,  0,  0,  9, 38,  0,  0, 31,  0,  0,  0, 35, 32, 35,  0,  0, 32,  0,  0,  0,  0, 34
6, 6583, 5,,     0.00, 3,   boost,   78.94,  97758.00,  301.25,    2.57,     NaN, 36.3, 4.12, 4.11, 4.12,   0.00,   0.00,   0.00,  66.23,  66.41,   0.00,   0.00,   0.00,   0.00,    NaN, 4.12, 0.00, 0.00, 0.00, 0.00, 1, 1, 11,  47.9868668, -81.8484808,   368.0, 2025,  8, 21, 18, 11, 46,        0,        0,   0,   0,   1.5,   0.8,   1.2,  0, 39,  0,  0,  0,  0,  0, 36,  0, 35,  0,  0,  0,  9, 38,  0,  0, 31,  0,  0,  0, 35, 32, 35,  0,  0, 32,  0,  0,  0,  0, 34
6, 6583, 5,,     0.00, 3,   boost,   78.94,  97758.00,  301.25,    2.57,     NaN, 36.3, 4.12, 4.11, 4.12,   0.00,   0.00,   0.00,  66.23,  66.41,   0.00,   0.00,   0.00,   0.00,    NaN, 4.12, 0.00, 0.00, 0.00, 0.00, 1, 1, 11,  47.9868668, -81.8484808,   368.0, 2025,  8, 21, 18, 11, 46,        0,        0,   0,   0,   1.5,   0.8,   1.2,  0, 39,  0,  0,  0,  0,  0, 36,  0, 35,  0,  0,  0,  9, 38,  0,  0, 31,  0,  0,  0, 35, 32, 35,  0,  0, 32,  0,  0,  0,  0, 34
6, 6583, 5,,     0.00, 3,   boost,   78.94,  97758.00,  301.25,    2.57,     NaN, 36.3, 4.12, 4.11, 4.12,   0.00,   0.00,   0.00,  66.23,  66.41,   0.00,   0.00,   0.00,   0.00,    NaN, 4.12, 0.00, 0.00, 0.00, 0.00, 1, 1, 11,  47.9868668, -81.8484808,   368.0, 2025,  8, 21, 18, 11, 46,        0,        0,   0,   0,   1.5,   0.8,   1.2,  0, 39,  0,  0,  0,  0,  0, 36,  0, 35,  0,  0,  0,  9, 38,  0,  0, 31,  0,  0,  0, 35, 32, 35,  0,  0, 32,  0,  0,  0,  0, 34
6, 6583, 5,,     0.00, 3,   boost,   78.94,  97758.00,  301.25,    2.57,     NaN, 36.3, 4.12, 4.11, 4.12,   0.00,   0.00,   0.00,  66.23,  66.41,   0.00,   0.00,   0.00,   0.00,    NaN, 4.12, 0.00, 0.00, 0.00, 0.00, 1, 1, 11,  47.9868668, -81.8484808,   368.0, 2025,  8, 21, 18, 11, 46,        0,        0,   0,   0,   1.5,   0.8,   1.2,  0, 39,  0,  0,  0,  0,  0, 36,  0, 35,  0,  0,  0,  9, 38,  0,  0, 31,  0,  0,  0, 35, 32, 35,  0,  0, 32,  0,  0,  0,  0, 34
6, 6583, 5,,     0.00, 3,   boost,   78.94,  97758.00,  301.25,    2.57,     NaN, 36.3, 4.12, 4.11, 4.12,   0.00,   0.00,   0.00,  66.23,  66.41,   0.00,   0.00,   0.00,   0.00,    NaN, 4.12, 0.00, 0.00, 0.00, 0.00, 1, 1, 11,  47.9868668, -81.8484808,   368.0, 2025,  8, 21, 18, 11, 46,        0,        0,   0,   0,   1.5,   0.8,   1.2,  0, 39,  0,  0,  0,  0,  0, 36,  0, 35,  0,  0,  0,  9, 38,  0,  0, 31,  0,  0,  0, 35, 32, 35,  0,  0, 32,  0,  0,  0,  0, 34
6, 6583, 5,,     0.00, 3,   boost,   78.94,  97758.00,  301.25,    2.57,     NaN, 36.3, 4.12, 4.11, 4.12,   0.00,   0.00,   0.00,  66.23,  66.41,   0.00,   0.00,   0.00,   0.00,    NaN, 4.12, 0.00, 0.00, 0.00, 0.00, 1, 1, 11,  47.9868668, -81.8484808,   368.0, 2025,  8, 21, 18, 11, 46,        0,        0,   0,   0,   1.5,   0.8,   1.2,  0, 39,  0,  0,  0,  0,  0, 36,  0, 35,  0,  0,  0,  9, 38,  0,  0, 31,  0,  0,  0, 35, 32, 35,  0,  0, 32,  0,  0,  0,  0, 34
6, 6583, 5,,     0.00, 3,   boost,   78.94,  97758.00,  301.25,    2.57,     NaN, 36.3, 4.12, 4.11, 4.12,   0.00,   0.00,   0.00,  66.23,  66.41,   0.00,   0.00,   0.00,   0.00,    NaN, 4.12, 0.00, 0.00, 0.00, 0.00, 1, 1, 11,  47.9868668, -81.8484808,   368.0, 2025,  8, 21, 18, 11, 46,        0,        0,   0,   0,   1.5,   0.8,   1.2,  0, 39,  0,  0,  0,  0,  0, 36,  0, 35,  0,  0,  0,  9, 38,  0,  0, 31,  0,  0,  0, 35, 32, 35,  0,  0, 32,  0,  0,  0,  0, 34
6, 6583, 5,,     0.00, 3,   boost,   78.94,  97758.00,  301.25,    2.57,     NaN, 36.3, 4.12, 4.11, 4.12,   0.00,   0.00,   0.00,  66.23,  66.41,   0.00,   0.00,   0.00,   0.00,    NaN, 4.12, 0.00, 0.00, 0.00, 0.00, 1, 1, 11,  47.9868668, -81.8484808,   368.0, 2025,  8, 21, 18, 11, 46,        0,        0,   0,   0,   1.5,   0.8,   1.2,  0, 39,  0,  0,  0,  0,  0, 36,  0, 35,  0,  0,  0,  9, 38,  0,  0, 31,  0,  0,  0, 35, 32, 35,  0,  0, 32,  0,  0,  0,  0, 34
6, 6583, 5,,     0.00, 3,   boost,   78.94,  97758.00,  301.25,    2.57,     NaN, 36.3, 4.12, 4.11, 4.12,   0.00,   0.00,   0.00,  66.23,  66.41,   0.00,   0.00,   0.00,   0.00,    NaN, 4.12, 0.00, 0.00, 0.00, 0.00, 1, 1, 11,  47.9868668, -81.8484808,   368.0, 2025,  8, 21, 18, 11, 46,        0,        0,   0,   0,   1.5,   0.8,   1.2,  0, 39,  0,  0,  0,  0,  0, 36,  0, 35,  0,  0,  0,  9, 38,  0,  0, 31,  0,  0,  0, 35, 32, 35,  0,  0, 32,  0,  0,  0,  0, 34
6, 6583, 5,,     0.00, 3,   boost,   78.94,  97758.00,  301.25,    2.57,     NaN, 36.3, 4.12, 4.11, 4.12,   0.00,   0.00,   0.00,  66.23,  66.41,   0.00,   0.00,   0.00,   0.00,    NaN, 4.12, 0.00, 0.00, 0.00, 0.00, 1, 1, 11,  47.9868668, -81.8484808,   368.0, 2025,  8, 21, 18, 11, 46,        0,        0,   0,   0,   1.5,   0.8,   1.2,  0, 39,  0,  0,  0,  0,  0, 36,  0, 35,  0,  0,  0,  9, 38,  0,  0, 31,  0,  0,  0, 35, 32, 35,  0,  0, 32,  0,  0,  0,  0, 34
6, 6583, 5,,     0.00, 3,   boost,   78.94,  97758.00,  301.25,    2.57,     NaN, 36.3, 4.12, 4.11, 4.12,   0.00,   0.00,   0.00,  66.23,  66.41,   0.00,   0.00,   0.00,   0.00,    NaN, 4.12, 0.00, 0.00, 0.00, 0.00, 1, 1, 11,  47.9868668, -81.8484808,   368.0, 2025,  8, 21, 18, 11, 46,        0,        0,   0,   0,   1.5,   0.8,   1.2,  0, 39,  0,  0,  0,  0,  0, 36,  0, 35,  0,  0,  0,  9, 38,  0,  0, 31,  0,  0,  0, 35, 32, 35,  0,  0, 32,  0,  0,  0,  0, 34
6, 6583, 5,,     0.00, 3,   boost,   78.94,  97758.00,  301.25,    2.57,     NaN, 36.3, 4.12, 4.11, 4.12,   0.00,   0.00,   0.00,  66.23,  66.41,   0.00,   0.00,   0.00,   0.00,    NaN, 4.12, 0.00, 0.00, 0.00, 0.00, 1, 1, 11,  47.9868668, -81.8484808,   368.0, 2025,  8, 21, 18, 11, 46,        0,        0,   0,   0,   1.5,   0.8,   1.2,  0, 39,  0,  0,  0,  0,  0, 36,  0, 35,  0,  0,  0,  9, 38,  0,  0, 31,  0,  0,  0, 35, 32, 35,  0,  0, 32,  0,  0,  0,  0, 34
6, 6583, 5,,     0.00, 3,   boost,   78.94,  97758.00,  301.25,    2.57,     NaN, 36.3, 4.12, 4.11, 4.12,   0.00,   0.00,   0.00,  66.23,  66.41,   0.00,   0.00,   0.00,   0.00,    NaN, 4.12, 0.00, 0.00, 0.00, 0.00, 1, 1, 11,  47.9868668, -81.8484808,   368.0, 2025,  8, 21, 18, 11, 46,        0,        0,   0,   0,   1.5,   0.8,   1.2,  0, 39,  0,  0,  0,  0,  0, 36,  0, 35,  0,  0,  0,  9, 38,  0,  0, 31,  0,  0,  0, 35, 32, 35,  0,  0, 32,  0,  0,  0,  0, 34
6, 6583, 5,,     0.00, 3,   boost,   78.94,  97758.00,  301.25,    2.57,     NaN, 36.3, 4.12, 4.11, 4.12,   0.00,   0.00,   0.00,  66.23,  66.41,   0.00,   0.00,   0.00,   0.00,    NaN, 4.12, 0.00, 0.00, 0.00, 0.00, 1, 1, 11,  47.9868668, -81.8484808,   368.0, 2025,  8, 21, 18, 11, 46,        0,        0,   0,   0,   1.5,   0.8,   1.2,  0, 39,  0,  0,  0,  0,  0, 36,  0, 35,  0,  0,  0,  9, 38,  0,  0, 31,  0,  0,  0, 35, 32, 35,  0,  0, 32,  0,  0,  0,  0, 34
6, 6583, 5,,     0.00, 3,   boost,   78.94,  97758.00,  301.25,    2.57,     NaN, 36.3, 4.12, 4.11, 4.12,   0.00,   0.00,   0.00,  66.23,  66.41,   0.00,   0.00,   0.00,   0.00,    NaN, 4.12, 0.00, 0.00, 0.00, 0.00, 1, 1, 11,  47.9868668, -81.8484808,   368.0, 2025,  8, 21, 18, 11, 46,        0,        0,   0,   0,   1.5,   0.8,   1.2,  0, 39,  0,  0,  0,  0,  0, 36,  0, 35,  0,  0,  0,  9, 38,  0,  0, 31,  0,  0,  0, 35, 32, 35,  0,  0, 32,  0,  0,  0,  0, 34
6, 6583, 5,,     0.00, 3,   boost,   78.94,  97758.00,  301.25,    2.57,     NaN, 36.3, 4.12, 4.11, 4.12,   0.00,   0.00,   0.00,  66.23,  66.41,   0.00,   0.00,   0.00,   0.00,    NaN, 4.12, 0.00, 0.00, 0.00, 0.00, 1, 1, 11,  47.9868668, -81.8484808,   368.0, 2025,  8, 21, 18, 11, 46,        0,        0,   0,   0,   1.5,   0.8,   1.2,  0, 39,  0,  0,  0,  0,  0, 36,  0, 35,  0,  0,  0,  9, 38,  0,  0, 31,  0,  0,  0, 35, 32, 35,  0,  0, 32,  0,  0,  0,  0, 34
6, 6583, 5,,     0.00, 3,   boost,   78.94,  97758.00,  301.25,    2.57,     NaN, 36.3, 4.12, 4.11, 4.12,   0.00,   0.00,   0.00,  66.23,  66.41,   0.00,   0.00,   0.00,   0.00,    NaN, 4.12, 0.00, 0.00, 0.00, 0.00, 1, 1, 11,  47.9868668, -81.8484808,   368.0, 2025,  8, 21, 18, 11, 46,        0,        0,   0,   0,   1.5,   0.8,   1.2,  0, 39,  0,  0,  0,  0,  0, 36,  0, 35,  0,  0,  0,  9, 38,  0,  0, 31,  0,  0,  0, 35, 32, 35,  0,  0, 32,  0,  0,  0,  0, 34
6, 6583, 5,,     0.00, 3,   boost,   78.94,  97758.00,  301.25,    2.57,     NaN, 36.3, 4.12, 4.11, 4.12,   0.00,   0.00,   0.00,  66.23,  66.41,   0.00,   0.00,   0.00,   0.00,    NaN, 4.12, 0.00, 0.00, 0.00, 0.00, 1, 1, 11,  47.9868668, -81.8484808,   368.0, 2025,  8, 21, 18, 11, 46,        0,        0,   0,   0,   1.5,   0.8,   1.2,  0, 39,  0,  0,  0,  0,  0, 36,  0, 35,  0,  0,  0,  9, 38,  0,  0, 31,  0,  0,  0, 35, 32, 35,  0,  0, 32,  0,  0,  0,  0, 34
6, 6583, 5,,     0.00, 3,   boost,   78.94,  97758.00,  301.25,    2.57,     NaN, 36.3, 4.12, 4.11, 4.12,   0.00,   0.00,   0.00,  66.23,  66.41,   0.00,   0.00,   0.00,   0.00,    NaN, 4.12, 0.00, 0.00, 0.00, 0.00, 1, 1, 11,  47.9868668, -81.8484808,   368.0, 2025,  8, 21, 18, 11, 46,        0,        0,   0,   0,   1.5,   0.8,   1.2,  0, 39,  0,  0,  0,  0,  0, 36,  0, 35,  0,  0,  0,  9, 38,  0,  0, 31,  0,  0,  0, 35, 32, 35,  0,  0, 32,  0,  0,  0,  0, 34
6, 6583, 5,,     0.00, 3,   boost,   78.94,  97758.00,  301.25,    2.57,     NaN, 36.3, 4.12, 4.11, 4.12,   0.00,   0.00,   0.00,  66.23,  66.41,   0.00,   0.00,   0.00,   0.00,    NaN, 4.12, 0.00, 0.00, 0.00, 0.00, 1, 1, 11,  47.9868668, -81.8484808,   368.0, 2025,  8, 21, 18, 11, 46,        0,        0,   0,   0,   1.5,   0.8,   1.2,  0, 39,  0,  0,  0,  0,  0, 36,  0, 35,  0,  0,  0,  9, 38,  0,  0, 31,  0,  0,  0, 35, 32, 35,  0,  0, 32,  0,  0,  0,  0, 34
6, 6583, 5,,     0.00, 3,   boost,   78.94,  97758.00,  301.25,    2.57,     NaN, 36.3, 4.12, 4.11, 4.12,   0.00,   0.00,   0.00,  66.23,  66.41,   0.00,   0.00,   0.00,   0.00,    NaN, 4.12, 0.00, 0.00, 0.00, 0.00, 1, 1, 11,  47.9868668, -81.8484808,   368.0, 2025,  8, 21, 18, 11, 46,        0,        0,   0,   0,   1.5,   0.8,   1.2,  0, 39,  0,  0,  0,  0,  0, 36,  0, 35,  0,  0,  0,  9, 38,  0,  0, 31,  0,  0,  0, 35, 32, 35,  0,  0, 32,  0,  0,  0,  0, 34
6, 6583, 5,,     0.00, 3,   boost,   78.94,  97758.00,  301.25,    2.57,     NaN, 36.3, 4.12, 4.11, 4.12,   0.00,   0.00,   0.00,  66.23,  66.41,   0.00,   0.00,   0.00,   0.00,    NaN, 4.12, 0.00, 0.00, 0.00, 0.00, 1, 1, 11,  47.9868668, -81.8484808,   368.0, 2025,  8, 21, 18, 11, 46,        0,        0,   0,   0,   1.5,   0.8,   1.2,  0, 39,  0,  0,  0,  0,  0, 36,  0, 35,  0,  0,  0,  9, 38,  0,  0, 31,  0,  0,  0, 35, 32, 35,  0,  0, 32,  0,  0,  0,  0, 34
6, 6583, 5,,     0.00, 3,   boost,   78.94,  97758.00,  301.25,    2.57,     NaN, 36.3, 4.12, 4.11, 4.12,   0.00,   0.00,   0.00,  66.23,  66.41,   0.00,   0.00,   0.00,   0.00,    NaN, 4.12, 0.00, 0.00, 0.00, 0.00, 1, 1, 11,  47.9868668, -81.8484808,   368.0, 2025,  8, 21, 18, 11, 46,        0,        0,   0,   0,   1.5,   0.8,   1.2,  0, 39,  0,  0,  0,  0,  0, 36,  0, 35,  0,  0,  0,  9, 38,  0,  0, 31,  0,  0,  0, 35, 32, 35,  0,  0, 32,  0,  0,  0,  0, 34
6, 6583, 5,,     0.00, 3,   boost,   78.94,  97758.00,  301.25,    2.57,     NaN, 36.3, 4.12, 4.11, 4.12,   0.00,   0.00,   0.00,  66.23,  66.41,   0.00,   0.00,   0.00,   0.00,    NaN, 4.12, 0.00, 0.00, 0.00, 0.00, 1, 1, 11,  47.9868668, -81.8484808,   368.0, 2025,  8, 21, 18, 11, 46,        0,        0,   0,   0,   1.5,   0.8,   1.2,  0, 39,  0,  0,  0,  0,  0, 36,  0, 35,  0,  0,  0,  9, 38,  0,  0, 31,  0,  0,  0, 35, 32, 35,  0,  0, 32,  0,  0,  0,  0, 34
6, 6583, 5,,     0.00, 3,   boost,   78.94,  97758.00,  301.25,    2.57,     NaN, 36.3, 4.12, 4.11, 4.12,   0.00,   0.00,   0.00,  66.23,  66.41,   0.00,   0.00,   0.00,   0.00,    NaN, 4.12, 0.00, 0.00, 0.00, 0.00, 1, 1, 11,  47.9868668, -81.8484808,   368.0, 2025,  8, 21, 18, 11, 46,        0,        0,   0,   0,   1.5,   0.8,   1.2,  0, 39,  0,  0,  0,  0,  0, 36,  0, 35,  0,  0,  0,  9, 38,  0,  0, 31,  0,  0,  0, 35, 32, 35,  0,  0, 32,  0,  0,  0,  0, 34
6, 6583, 5,,     0.00, 3,   boost,   78.94,  97758.00,  301.25,    2.57,     NaN, 36.3, 4.12, 4.11, 4.12,   0.00,   0.00,   0.00,  66.23,  66.41,   0.00,   0.00,   0.00,   0.00,    NaN, 4.12, 0.00, 0.00, 0.00, 0.00, 1, 1, 11,  47.9868668, -81.8484808,   368.0, 2025,  8, 21, 18, 11, 46,        0,        0,   0,   0,   1.5,   0.8,   1.2,  0, 39,  0,  0,  0,  0,  0, 36,  0, 35,  0,  0,  0,  9, 38,  0,  0, 31,  0,  0,  0, 35, 32, 35,  0,  0, 32,  0,  0,  0,  0, 34
6, 6583, 5,,     0.00, 3,   boost,   78.94,  97758.00,  301.25,    2.57,     NaN, 36.3, 4.12, 4.11, 4.12,   0.00,   0.00,   0.00,  66.23,  66.41,   0.00,   0.00,   0.00,   0.00,    NaN, 4.12, 0.00, 0.00, 0.00, 0.00, 1, 1, 11,  47.9868668, -81.8484808,   368.0, 2025,  8, 21, 18, 11, 46,        0,        0,   0,   0,   1.5,   0.8,   1.2,  0, 39,  0,  0,  0,  0,  0, 36,  0, 35,  0,  0,  0,  9, 38,  0,  0, 31,  0,  0,  0, 35, 32, 35,  0,  0, 32,  0,  0,  0,  0, 34
6, 6583, 5,,     0.00, 3,   boost,   78.94,  97758.00,  301.25,    2.57,     NaN, 36.3, 4.12, 4.11, 4.12,   0.00,   0.00,   0.00,  66.23,  66.41,   0.00,   0.00,   0.00,   0.00,    NaN, 4.12, 0.00, 0.00, 0.00, 0.00, 1, 1, 11,  47.9868668, -81.8484808,   368.0, 2025,  8, 21, 18, 11, 46,        0,        0,   0,   0,   1.5,   0.8,   1.2,  0, 39,  0,  0,  0,  0,  0, 36,  0, 35,  0,  0,  0,  9, 38,  0,  0, 31,  0,  0,  0, 35, 32, 35,  0,  0, 32,  0,  0,  0,  0, 34
6, 6583, 5,,     0.00, 3,   boost,   78.94,  97758.00,  301.25,    2.57,     NaN, 36.3, 4.12, 4.11, 4.12,   0.00,   0.00,   0.00,  66.23,  66.41,   0.00,   0.00,   0.00,   0.00,    NaN, 4.12, 0.00, 0.00, 0.00, 0.00, 1, 1, 11,  47.9868668, -81.8484808,   368.0, 2025,  8, 21, 18, 11, 46,        0,        0,   0,   0,   1.5,   0.8,   1.2,  0, 39,  0,  0,  0,  0,  0, 36,  0, 35,  0,  0,  0,  9, 38,  0,  0, 31,  0,  0,  0, 35, 32, 35,  0,  0, 32,  0,  0,  0,  0, 34
6, 6583, 5,,     0.00, 3,   boost,   78.94,  97758.00,  301.25,    2.57,     NaN, 36.3, 4.12, 4.11, 4.12,   0.00,   0.00,   0.00,  66.23,  66.41,   0.00,   0.00,   0.00,   0.00,    NaN, 4.12, 0.00, 0.00, 0.00, 0.00, 1, 1, 11,  47.9868668, -81.8484808,   368.0, 2025,  8, 21, 18, 11, 46,        0,        0,   0,   0,   1.5,   0.8,   1.2,  0, 39,  0,  0,  0,  0,  0, 36,  0, 35,  0,  0,  0,  9, 38,  0,  0, 31,  0,  0,  0, 35, 32, 35,  0,  0, 32,  0,  0,  0,  0, 34
6, 6583, 5,,     0.00, 3,   boost,   78.94,  97758.00,  301.25,    2.57,     NaN, 36.3, 4.12, 4.11, 4.12,   0.00,   0.00,   0.00,  66.23,  66.41,   0.00,   0.00,   0.00,   0.00,    NaN, 4.12, 0.00, 0.00, 0.00, 0.00, 1, 1, 11,  47.9868668, -81.8484808,   368.0, 2025,  8, 21, 18, 11, 46,        0,        0,   0,   0,   1.5,   0.8,   1.2,  0, 39,  0,  0,  0,  0,  0, 36,  0, 35,  0,  0,  0,  9, 38,  0,  0, 31,  0,  0,  0, 35, 32, 35,  0,  0, 32,  0,  0,  0,  0, 34
6, 6583, 5,,     0.00, 3,   boost,   78.94,  97758.00,  301.25,    2.57,     NaN, 36.3, 4.12, 4.11, 4.12,   0.00,   0.00,   0.00,  66.23,  66.41,   0.00,   0.00,   0.00,   0.00,    NaN, 4.12, 0.00, 0.00, 0.00, 0.00, 1, 1, 11,  47.9868668, -81.8484808,   368.0, 2025,  8, 21, 18, 11, 46,        0,        0,   0,   0,   1.5,   0.8,   1.2,  0, 39,  0,  0,  0,  0,  0, 36,  0, 35,  0,  0,  0,  9, 38,  0,  0, 31,  0,  0,  0, 35, 32, 35,  0,  0, 32,  0,  0,  0,  0, 34
6, 6583, 5,,     0.01, 3,   boost,   76.00,  97774.00,  299.88,    1.20,     NaN, 36.3, 4.12, 4.11, 4.12,   0.00,   0.00,   0.00,  66.23,  66.41,   0.00,   0.00,   0.00,   0.00,    NaN, 4.12, 0.00, 0.00, 0.00, 0.00, 1, 1, 11,  47.9868668, -81.8484808,   368.0, 2025,  8, 21, 18, 11, 46,        0,        0,   0,   0,   1.5,   0.8,   1.2,  0, 39,  0,  0,  0,  0,  0, 36,  0, 35,  0,  0,  0,  9, 38,  0,  0, 31,  0,  0,  0, 35, 32, 35,  0,  0, 32,  0,  0,  0,  0, 34
6, 6583, 5,,     0.01, 3,   boost,   76.00,  97774.00,  299.88,    1.20,     NaN, 36.3, 4.12, 4.11, 4.12,   0.00,   0.00,   0.00,  66.23,  66.41,   0.00,   0.00,   0.00,   0.00,    NaN, 4.12, 0.00, 0.00, 0.00, 0.00, 1, 1, 11,  47.9868668, -81.8484808,   368.0, 2025,  8, 21, 18, 11, 46,        0,        0,   0,   0,   1.5,   0.8,   1.2,  0, 39,  0,  0,  0,  0,  0, 36,  0, 35,  0,  0,  0,  9, 38,  0,  0, 31,  0,  0,  0, 35, 32, 35,  0,  0, 32,  0,  0,  0,  0, 34
6, 6583, 5,,     0.02, 3,   boost,   76.00,  97752.00,  301.76,    3.08,     NaN, 36.3, 4.12, 4.11, 4.12,   0.00,   0.00,   0.00,  66.23,  66.41,   0.00,   0.00,   0.00,   0.00,    NaN, 4.13, 0.00, 0.00, 0.06, 0.00, 1, 1, 11,  47.9868668, -81.8484808,   368.0, 2025,  8, 21, 18, 11, 46,        0,        0,   0,   0,   1.5,   0.8,   1.2,  0, 39,  0,  0,  0,  0,  0, 36,  0, 35,  0,  0,  0,  9, 38,  0,  0, 31,  0,  0,  0, 35, 32, 35,  0,  0, 32,  0,  0,  0,  0, 34
6, 6583, 5,,     0.02, 3,   boost,   76.00,  97752.00,  301.76,    3.08,     NaN, 36.3, 4.12, 4.11, 4.12,   0.00,   0.00,   0.00,  66.23,  66.41,   0.00,   0.00,   0.00,   0.00,    NaN, 4.13, 0.00, 0.00, 0.06, 0.00, 1, 1, 11,  47.9868668, -81.8484808,   368.0, 2025,  8, 21, 18, 11, 46,        0,        0,   0,   0,   1.5,   0.8,   1.2,  0, 39,  0,  0,  0,  0,  0, 36,  0, 35,  0,  0,  0,  9, 38,  0,  0, 31,  0,  0,  0, 35, 32, 35,  0,  0, 32,  0,  0,  0,  0, 34
6, 6583, 5,,     0.03, 3,   boost,   80.41,  97765.00,  300.65,    1.97,     NaN, 36.2, 4.12, 4.11, 4.12,   0.08,   0.00,   0.00,  66.10,  66.35,   0.00,   0.00,   0.00,   0.00,    NaN, 4.13, 0.00, 0.00, 0.06, 0.00, 1, 1, 11,  47.9868668, -81.8484808,   368.0, 2025,  8, 21, 18, 11, 46,        0,        0,   0,   0,   1.5,   0.8,   1.2,  0, 39,  0,  0,  0,  0,  0, 36,  0, 35,  0,  0,  0,  9, 38,  0,  0, 31,  0,  0,  0, 35, 32, 35,  0,  0, 32,  0,  0,  0,  0, 34
6, 6583, 5,,     0.04, 3,   boost,   76.98,  97753.00,  301.68,    3.00,     NaN, 36.2, 4.12, 4.11, 4.12,   0.08,   0.00,   0.00,  66.10,  66.35,   0.00,   0.00,   0.00,   0.00,    NaN, 4.13, 0.00, 0.00, 0.06, 0.00, 1, 1, 11,  47.9868668, -81.8484808,   368.0, 2025,  8, 21, 18, 11, 46,        0,        0,   0,   0,   1.5,   0.8,   1.2,  0, 39,  0,  0,  0,  0,  0, 36,  0, 35,  0,  0,  0,  9, 38,  0,  0, 31,  0,  0,  0, 35, 32, 35,  0,  0, 32,  0,  0,  0,  0, 34
6, 6583, 5,,     0.05, 3,   boost,   78.45,  97773.00,  299.96,    1.29,     NaN, 36.2, 4.12, 4.11, 4.12,   0.08,   0.00,   0.00,  66.10,  66.35,   0.00,   0.00,   0.00,   0.00,    NaN, 4.13, 0.00, 0.00, 0.06, 0.00, 1, 1, 11,  47.9868668, -81.8484808,   368.0, 2025,  8, 21, 18, 11, 46,        0,        0,   0,   0,   1.5,   0.8,   1.2,  0, 39,  0,  0,  0,  0,  0, 36,  0, 35,  0,  0,  0,  9, 38,  0,  0, 31,  0,  0,  0, 35, 32, 35,  0,  0, 32,  0,  0,  0,  0, 34
6, 6583, 5,,     0.06, 3,   boost,   82.87,  97766.00,  300.56,    1.88,     NaN, 36.2, 4.12, 4.11, 4.12,   0.08,   0.00,   0.00,  66.10,  66.35,   0.00,   0.00,   0.00,   0.00,    NaN, 4.13, 0.00, 0.00, 0.06, 0.00, 1, 1, 11,  47.9868668, -81.8484808,   368.0, 2025,  8, 21, 18, 11, 46,        0,        0,   0,   0,   1.5,   0.8,   1.2,  0, 39,  0,  0,  0,  0,  0, 36,  0, 35,  0,  0,  0,  9, 38,  0,  0, 31,  0,  0,  0, 35, 32, 35,  0,  0, 32,  0,  0,  0,  0, 34
6, 6583, 5,,     0.07, 3,   boost,   80.41,  97755.00,  301.51,    2.83,     NaN, 36.2, 4.12, 4.11, 4.12,   0.08,   0.00,   0.00,  66.10,  66.35,   0.00,   0.00,   0.00,   0.00,    NaN, 4.13, 0.00, 0.00, 0.06, 0.00, 1, 1, 11,  47.9868668, -81.8484808,   368.0, 2025,  8, 21, 18, 11, 46,        0,        0,   0,   0,   1.5,   0.8,   1.2,  0, 39,  0,  0,  0,  0,  0, 36,  0, 35,  0,  0,  0,  9, 38,  0,  0, 31,  0,  0,  0, 35, 32, 35,  0,  0, 32,  0,  0,  0,  0, 34
6, 6583, 5,,     0.08, 3,   boost,   79.43,  97775.00,  299.79,    1.11,     NaN, 36.2, 4.12, 4.11, 4.12,   0.08,   0.00,   0.00,  66.10,  66.35,   0.00,   0.00,   0.00,   0.00,    NaN, 4.13, 0.00, 0.00, 0.06, 0.00, 1, 1, 11,  47.9868668, -81.8484808,   368.0, 2025,  8, 21, 18, 11, 46,        0,        0,   0,   0,   1.5,   0.8,   1.2,  0, 39,  0,  0,  0,  0,  0, 36,  0, 35,  0,  0,  0,  9, 38,  0,  0, 31,  0,  0,  0, 35, 32, 35,  0,  0, 32,  0,  0,  0,  0, 34
6, 6583, 5,,     0.09, 3,   boost,   77.96,  97772.00,  300.05,    1.37,     NaN, 36.3, 4.12, 4.11, 4.12,   0.08,   0.00,   0.00,  66.10,  66.35,   0.00,   0.00,   0.00,   0.00,    NaN, 4.13, 0.00, 0.00, 0.06, 0.00, 1, 1, 11,  47.9868668, -81.8484808,   368.0, 2025,  8, 21, 18, 11, 46,        0,        0,   0,   0,   1.5,   0.8,   1.2,  0, 39,  0,  0,  0,  0,  0, 36,  0, 35,  0,  0,  0,  9, 38,  0,  0, 31,  0,  0,  0, 35, 32, 35,  0,  0, 32,  0,  0,  0,  0, 34
6, 6583, 5,,     0.10, 3,   boost,   80.41,  97766.00,  300.56,    1.88,     NaN, 36.2, 4.12, 4.11, 4.12,   0.08,   0.00,   0.00,  66.10,  66.35,   0.00,   0.00,   0.00,   0.00,    NaN, 4.13, 0.00, 0.00, 0.06, 0.00, 1, 1, 11,  47.9868668, -81.8484808,   368.0, 2025,  8, 21, 18, 11, 46,        0,        0,   0,   0,   1.5,   0.8,   1.2,  0, 39,  0,  0,  0,  0,  0, 36,  0, 35,  0,  0,  0,  9, 38,  0,  0, 31,  0,  0,  0, 35, 32, 35,  0,  0, 32,  0,  0,  0,  0, 34
6, 6583, 5,,     0.11, 3,   boost,   84.83,  97766.00,  300.56,    1.88,     NaN, 36.3, 4.12, 4.11, 4.12,   0.08,   0.00,   0.00,  66.10,  66.35,   0.00,   0.00,   0.00,   0.00,    NaN, 4.13, 0.00, 0.00, 0.06, 0.00, 1, 1, 11,  47.9868668, -81.8484808,   368.0, 2025,  8, 21, 18, 11, 46,        0,        0,   0,   0,   1.5,   0.8,   1.2,  0, 39,  0,  0,  0,  0,  0, 36,  0, 35,  0,  0,  0,  9, 38,  0,  0, 31,  0,  0,  0, 35, 32, 35,  0,  0, 32,  0,  0,  0,  0, 34
6, 6583, 5,,     0.12, 3,   boost,   84.83,  97761.00,  300.99,    2.31,     NaN, 36.3, 4.12, 4.11, 4.12,   0.08,   0.00,   0.00,  66.10,  66.35,   0.00,   0.00,   0.00,   0.00,    NaN, 4.13, 0.00, 0.00, 0.06, 0.00, 1, 1, 11,  47.9868668, -81.8484808,   368.0, 2025,  8, 21, 18, 11, 46,        0,        0,   0,   0,   1.5,   0.8,   1.2,  0, 39,  0,  0,  0,  0,  0, 36,  0, 35,  0,  0,  0,  9, 38,  0,  0, 31,  0,  0,  0, 35, 32, 35,  0,  0, 32,  0,  0,  0,  0, 34
6, 6583, 5,,     0.13, 3,   boost,   81.89,  97775.00,  299.79,    1.11,     NaN, 36.2, 4.12, 4.11, 4.12,   0.08,   0.00,   0.00,  66.10,  66.35,   0.00,   0.00,   0.00,   0.00,    NaN, 4.13, 0.00, 0.00, 0.06, 0.00, 1, 1, 11,  47.9868668, -81.8484808,   368.0, 2025,  8, 21, 18, 11, 46,        0,        0,   0,   0,   1.5,   0.8,   1.2,  0, 39,  0,  0,  0,  0,  0, 36,  0, 35,  0,  0,  0,  9, 38,  0,  0, 31,  0,  0,  0, 35, 32, 35,  0,  0, 32,  0,  0,  0,  0, 34
6, 6583, 5,,     0.14, 3,   boost,   83.85,  97755.00,  301.51,    2.83,     NaN, 36.2, 4.12, 4.11, 4.12,   0.08,   0.00,   0.00,  66.10,  66.35,   0.00,   0.00,   0.00,   0.00,    NaN, 4.13, 0.00, 0.00, 0.06, 0.00, 1, 1, 11,  47.9868668, -81.8484808,   368.0, 2025,  8, 21, 18, 11, 46,        0,        0,   0,   0,   1.5,   0.8,   1.2,  0, 39,  0,  0,  0,  0,  0, 36,  0, 35,  0,  0,  0,  9, 38,  0,  0, 31,  0,  0,  0, 35, 32, 35,  0,  0, 32,  0,  0,  0,  0, 34
6, 6583, 5,,     0.15, 3,   boost,   84.83,  97749.00,  302.02,    3.34,     NaN, 36.3, 4.12, 4.11, 4.12,   0.08,   0.00,   0.00,  66.10,  66.35,   0.00,   0.00,   0.00,   0.00,    NaN, 4.13, 0.00, 0.00, 0.06, 0.00, 1, 1, 11,  47.9868668, -81.8484808,   368.0, 2025,  8, 21, 18, 11, 46,        0,        0,   0,   0,   1.5,   0.8,   1.2,  0, 39,  0,  0,  0,  0,  0, 36,  0, 35,  0,  0,  0,  9, 38,  0,  0, 31,  0,  0,  0, 35, 32, 35,  0,  0, 32,  0,  0,  0,  0, 34
6, 6583, 5,,     0.16, 3,   boost,   80.41,  97755.00,  301.51,    2.83,     NaN, 36.3, 4.12, 4.11, 4.12,   0.08,   0.00,   0.00,  66.10,  66.35,   0.00,   0.00,   0.00,   0.00,    NaN, 4.13, 0.00, 0.00, 0.06, 0.00, 1, 1, 11,  47.9868668, -81.8484808,   368.0, 2025,  8, 21, 18, 11, 46,        0,        0,   0,   0,   1.5,   0.8,   1.2,  0, 39,  0,  0,  0,  0,  0, 36,  0, 35,  0,  0,  0,  9, 38,  0,  0, 31,  0,  0,  0, 35, 32, 35,  0,  0, 32,  0,  0,  0,  0, 34
6, 6583, 5,,     0.17, 3,   boost,   81.40,  97751.00,  301.85,    3.17,     NaN, 36.3, 4.12, 4.11, 4.12,   0.08,   0.00,   0.00,  66.10,  66.35,   0.00,   0.00,   0.00,   0.00,    NaN, 4.13, 0.00, 0.00, 0.06, 0.00, 1, 1, 11,  47.9868668, -81.8484808,   368.0, 2025,  8, 21, 18, 11, 46,        0,        0,   0,   0,   1.5,   0.8,   1.2,  0, 39,  0,  0,  0,  0,  0, 36,  0, 35,  0,  0,  0,  9, 38,  0,  0, 31,  0,  0,  0, 35, 32, 35,  0,  0, 32,  0,  0,  0,  0, 34
6, 6583, 5,,     0.18, 3,   boost,   84.83,  97723.00,  304.25,    5.57,     NaN, 36.3, 4.12, 4.11, 4.12,   0.08,   0.00,   0.00,  66.10,  66.35,   0.00,   0.00,   0.00,   0.00,    NaN, 4.13, 0.00, 0.00, 0.06, 0.00, 1, 1, 11,  47.9868668, -81.8484808,   368.0, 2025,  8, 21, 18, 11, 46,        0,        0,   0,   0,   1.5,   0.8,   1.2,  0, 39,  0,  0,  0,  0,  0, 36,  0, 35,  0,  0,  0,  9, 38,  0,  0, 31,  0,  0,  0, 35, 32, 35,  0,  0, 32,  0,  0,  0,  0, 34
6, 6583, 5,,     0.19, 3,   boost,   84.34,  97718.00,  304.68,    6.00,     NaN, 36.2, 4.12, 4.11, 4.12,   0.08,   0.00,   0.00,  66.10,  66.35,   0.00,   0.00,   0.00,   0.00,    NaN, 4.13, 0.00, 0.00, 0.06, 0.00, 1, 1, 11,  47.9868668, -81.8484808,   368.0, 2025,  8, 21, 18, 11, 46,        0,        0,   0,   0,   1.5,   0.8,   1.2,  0, 39,  0,  0,  0,  0,  0, 36,  0, 35,  0,  0,  0,  9, 38,  0,  0, 31,  0,  0,  0, 35, 32, 35,  0,  0, 32,  0,  0,  0,  0, 34
6, 6583, 5,,     0.20, 3,   boost,   88.26,  97760.00,  301.08,    2.40,     NaN, 36.3, 4.12, 4.11, 4.12,   0.08,   0.00,   0.00,  66.10,  66.35,   0.00,   0.00,   0.00,   0.00,    NaN, 4.13, 0.00, 0.00, 0.06, 0.00, 1, 1, 11,  47.9868668, -81.8484808,   368.0, 2025,  8, 21, 18, 11, 46,        0,        0,   0,   0,   1.5,   0.8,   1.2,  0, 39,  0,  0,  0,  0,  0, 36,  0, 35,  0,  0,  0,  9, 38,  0,  0, 31,  0,  0,  0, 35, 32, 35,  0,  0, 32,  0,  0,  0,  0, 34
6, 6583, 5,,     0.21, 3,   boost,   86.30,  97719.00,  304.59,    5.91,     NaN, 36.2, 4.12, 4.11, 4.12,   0.08,   0.00,   0.00,  66.10,  66.35,   0.00,   0.00,   0.00,   0.00,    NaN, 4.13, 0.00, 0.00, 0.06, 0.00, 1, 1, 11,  47.9868668, -81.8484808,   368.0, 2025,  8, 21, 18, 11, 46,        0,        0,   0,   0,   1.5,   0.8,   1.2,  0, 39,  0,  0,  0,  0,  0, 36,  0, 35,  0,  0,  0,  9, 38,  0,  0, 31,  0,  0,  0, 35, 32, 35,  0,  0, 32,  0,  0,  0,  0, 34
6, 6583, 5,,     0.22, 3,   boost,   85.32,  97789.00,  298.59,   -0.09,     NaN, 36.2, 4.12, 4.11, 4.12,   0.08,   0.00,   0.00,  66.10,  66.35,   0.00,   0.00,   0.00,   0.00,    NaN, 4.13, 0.00, 0.00, 0.06, 0.00, 1, 1, 11,  47.9868668, -81.8484808,   368.0, 2025,  8, 21, 18, 11, 46,        0,        0,   0,   0,   1.5,   0.8,   1.2,  0, 39,  0,  0,  0,  0,  0, 36,  0, 35,  0,  0,  0,  9, 38,  0,  0, 31,  0,  0,  0, 35, 32, 35,  0,  0, 32,  0,  0,  0,  0, 34
6, 6583, 5,,     0.23, 3,   boost,   85.81,  97719.00,  304.59,    5.91,     NaN, 36.3, 4.12, 4.11, 4.12,   0.08,   0.00,   0.00,  66.10,  66.35,   0.00,   0.00,   0.00,   0.00,    NaN, 4.13, 0.00, 0.00, 0.06, 0.00, 1, 1, 11,  47.9868668, -81.8484808,   368.0, 2025,  8, 21, 18, 11, 46,        0,        0,   0,   0,   1.5,   0.8,   1.2,  0, 39,  0,  0,  0,  0,  0, 36,  0, 35,  0,  0,  0,  9, 38,  0,  0, 31,  0,  0,  0, 35, 32, 35,  0,  0, 32,  0,  0,  0,  0, 34
6, 6583, 5,,     0.24, 3,   boost,   88.75,  97720.00,  304.51,    5.83,     NaN, 36.3, 4.12, 4.11, 4.12,   0.08,   0.00,   0.00,  66.10,  66.35,   0.00,   0.00,   0.00,   0.00,    NaN, 4.13, 0.00, 0.00, 0.06, 0.00, 1, 1, 11,  47.9868668, -81.8484808,   368.0, 2025,  8, 21, 18, 11, 46,        0,        0,   0,   0,   1.5,   0.8,   1.2,  0, 39,  0,  0,  0,  0,  0, 36,  0, 35,  0,  0,  0,  9, 38,  0,  0, 31,  0,  0,  0, 35, 32, 35,  0,  0, 32,  0,  0,  0,  0, 34
6, 6583, 5,,     0.25, 3,   boost,   87.28,  97716.00,  304.85,    6.17,     NaN, 36.3, 4.12, 4.11, 4.12,   0.08,   0.00,   0.00,  66.10,  66.35,   0.00,   0.00,   0.00,   0.00,    NaN, 4.13, 0.00, 0.00, 0.06, 0.00, 1, 1, 11,  47.9868668, -81.8484808,   368.0, 2025,  8, 21, 18, 11, 46,        0,        0,   0,   0,   1.5,   0.8,   1.2,  0, 39,  0,  0,  0,  0,  0, 36,  0, 35,  0,  0,  0,  9, 38,  0,  0, 31,  0,  0,  0, 35, 32, 35,  0,  0, 32,  0,  0,  0,  0, 34
6, 6583, 5,,     0.26, 3,   boost,   90.22,  97756.00,  301.42,    2.74,     NaN, 36.3, 4.12, 4.11, 4.12,   0.08,   0.00,   0.00,  66.10,  66.35,   0.00,   0.00,   0.00,   0.00,    NaN, 4.13, 0.00, 0.00, 0.06, 0.00, 1, 1, 11,  47.9868668, -81.8484808,   368.0, 2025,  8, 21, 18, 11, 46,        0,        0,   0,   0,   1.5,   0.8,   1.2,  0, 39,  0,  0,  0,  0,  0, 36,  0, 35,  0,  0,  0,  9, 38,  0,  0, 31,  0,  0,  0, 35, 32, 35,  0,  0, 32,  0,  0,  0,  0, 34
6, 6583, 5,,     0.27, 3,   boost,   88.75,  97716.00,  304.85,    6.17,     NaN, 36.3, 4.12, 4.11, 4.12,   0.08,   0.00,   0.00,  66.10,  66.35,   0.00,   0.00,   0.00,   0.00,    NaN, 4.13, 0.00, 0.00, 0.06, 0.00, 1, 1, 11,  47.9868668, -81.8484808,   368.0, 2025,  8, 21, 18, 11, 46,        0,        0,   0,   0,   1.5,   0.8,   1.2,  0, 39,  0,  0,  0,  0,  0, 36,  0, 35,  0,  0,  0,  9, 38,  0,  0, 31,  0,  0,  0, 35, 32, 35,  0,  0, 32,  0,  0,  0,  0, 34
6, 6583, 5,,     0.28, 3,   boost,   88.75,  97717.00,  304.76,    6.08,     NaN, 36.2, 4.12, 4.11, 4.12,   0.08,   0.00,   0.00,  66.10,  66.35,   0.00,   0.00,   0.00,   0.00,    NaN, 4.13, 0.00, 0.00, 0.06, 0.00, 1, 1, 11,  47.9868668, -81.8484808,   368.0, 2025,  8, 21, 18, 11, 46,        0,        0,   0,   0,   1.5,   0.8,   1.2,  0, 39,  0,  0,  0,  0,  0, 36,  0, 35,  0,  0,  0,  9, 38,  0,  0, 31,  0,  0,  0, 35, 32, 35,  0,  0, 32,  0,  0,  0,  0, 34
6, 6583, 5,,     0.29, 3,   boost,   90.22,  97749.00,  302.02,    3.34,     NaN, 36.3, 4.12, 4.11, 4.12,   0.08,   0.00,   0.00,  66.10,  66.35,   0.00,   0.00,   0.00,   0.00,    NaN, 4.13, 0.00, 0.00, 0.06, 0.00, 1, 1, 11,  47.9868668, -81.8484808,   368.0, 2025,  8, 21, 18, 11, 46,        0,        0,   0,   0,   1.5,   0.8,   1.2,  0, 39,  0,  0,  0,  0,  0, 36,  0, 35,  0,  0,  0,  9, 38,  0,  0, 31,  0,  0,  0, 35, 32, 35,  0,  0, 32,  0,  0,  0,  0, 34
6, 6583, 5,,     0.30, 3,   boost,   89.24,  97741.00,  302.71,    4.03,     NaN, 36.3, 4.12, 4.11, 4.12,   0.08,   0.00,   0.00,  66.10,  66.35,   0.00,   0.00,   0.00,   0.00,    NaN, 4.13, 0.00, 0.00, 0.06, 0.00, 1, 1, 11,  47.9868668, -81.8484808,   368.0, 2025,  8, 21, 18, 11, 46,        0,        0,   0,   0,   1.5,   0.8,   1.2,  0, 39,  0,  0,  0,  0,  0, 36,  0, 35,  0,  0,  0,  9, 38,  0,  0, 31,  0,  0,  0, 35, 32, 35,  0,  0, 32,  0,  0,  0,  0, 34
6, 6583, 5,,     0.31, 3,   boost,   88.26,  97739.00,  302.88,    4.20,     NaN, 36.2, 4.12, 4.11, 4.12,   0.08,   0.00,   0.00,  66.10,  66.35,   0.00,   0.00,   0.00,   0.00,    NaN, 4.13, 0.00, 0.00, 0.06, 0.00, 1, 1, 11,  47.9868668, -81.8484808,   368.0, 2025,  8, 21, 18, 11, 46,        0,        0,   0,   0,   1.5,   0.8,   1.2,  0, 39,  0,  0,  0,  0,  0, 36,  0, 35,  0,  0,  0,  9, 38,  0,  0, 31,  0,  0,  0, 35, 32, 35,  0,  0, 32,  0,  0,  0,  0, 34
6, 6583, 5,,     0.32, 3,   boost,   90.71,  97713.00,  305.11,    6.43,     NaN, 36.3, 4.12, 4.11, 4.12,   0.08,   0.00,   0.00,  66.10,  66.35,   0.00,   0.00,   0.00,   0.00,    NaN, 4.13, 0.00, 0.00, 0.06, 0.00, 1, 1, 11,  47.9868668, -81.8484808,   368.0, 2025,  8, 21, 18, 11, 46,        0,        0,   0,   0,   1.5,   0.8,   1.2,  0, 39,  0,  0,  0,  0,  0, 36,  0, 35,  0,  0,  0,  9, 38,  0,  0, 31,  0,  0,  0, 35, 32, 35,  0,  0, 32,  0,  0,  0,  0, 34
6, 6583, 5,,     0.33, 3,   boost,   88.75,  97714.00,  305.02,    6.34,     NaN, 36.3, 4.12, 4.11, 4.12,   0.08,   0.00,   0.00,  66.10,  66.35,   0.00,   0.00,   0.00,   0.00,    NaN, 4.13, 0.00, 0.00, 0.06, 0.00, 1, 1, 11,  47.9868668, -81.8484808,   368.0, 2025,  8, 21, 18, 11, 46,        0,        0,   0,   0,   1.5,   0.8,   1.2,  0, 39,  0,  0,  0,  0,  0, 36,  0, 35,  0,  0,  0,  9, 38,  0,  0, 31,  0,  0,  0, 35, 32, 35,  0,  0, 32,  0,  0,  0,  0, 34
6, 6583, 5,,     0.34, 3,   boost,   87.77,  97700.00,  306.22,    7.54,     NaN, 36.2, 4.12, 4.11, 4.12,   0.08,   0.00,   0.00,  66.10,  66.35,   0.00,   0.00,   0.00,   0.00,    NaN, 4.11, 0.00, 0.00, 0.00, 0.00, 1, 1, 11,  47.9868668, -81.8484808,   368.0, 2025,  8, 21, 18, 11, 46,        0,        0,   0,   0,   1.5,   0.8,   1.2,  0, 39,  0,  0,  0,  0,  0, 36,  0, 35,  0,  0,  0,  9, 38,  0,  0, 31,  0,  0,  0, 35, 32, 35,  0,  0, 32,  0,  0,  0,  0, 34
6, 6583, 5,,     0.34, 3,   boost,   87.77,  97700.00,  306.22,    7.54,     NaN, 36.2, 4.12, 4.11, 4.12,   0.08,   0.00,   0.00,  66.10,  66.35,   0.00,   0.00,   0.00,   0.00,    NaN, 4.11, 0.00, 0.00, 0.00, 0.00, 1, 1, 11,  47.9868668, -81.8484808,   368.0, 2025,  8, 21, 18, 11, 46,        0,        0,   0,   0,   1.5,   0.8,   1.2,  0, 39,  0,  0,  0,  0,  0, 36,  0, 35,  0,  0,  0,  9, 38,  0,  0, 31,  0,  0,  0, 35, 32, 35,  0,  0, 32,  0,  0,  0,  0, 34
6, 6583, 5,,     0.35, 3,   boost,   93.16,  97708.00,  305.53,    6.86,     NaN, 36.2, 4.12, 4.11, 4.12,   0.00,   0.00,   0.00,  66.16,  66.29,   0.00,   0.00,   0.00,   0.00,    NaN, 4.11, 0.00, 0.00, 0.00, 0.00, 1, 1, 11,  47.9868668, -81.8484808,   368.0, 2025,  8, 21, 18, 11, 46,        0,        0,   0,   0,   1.5,   0.8,   1.2,  0, 39,  0,  0,  0,  0,  0, 36,  0, 35,  0,  0,  0,  9, 38,  0,  0, 31,  0,  0,  0, 35, 32, 35,  0,  0, 32,  0,  0,  0,  0, 34
6, 6583, 5,,     0.36, 3,   boost,   92.67,  97691.00,  306.99,    8.31,     NaN, 36.3, 4.12, 4.11, 4.12,   0.00,   0.00,   0.00,  66.16,  66.29,   0.00,   0.00,   0.00,   0.00,    NaN, 4.11, 0.00, 0.00, 0.00, 0.00, 1, 1, 11,  47.9868668, -81.8484808,   368.0, 2025,  8, 21, 18, 11, 46,        0,        0,   0,   0,   1.5,   0.8,   1.2,  0, 39,  0,  0,  0,  0,  0, 36,  0, 35,  0,  0,  0,  9, 38,  0,  0, 31,  0,  0,  0, 35, 32, 35,  0,  0, 32,  0,  0,  0,  0, 34
6, 6583, 5,,     0.37, 3,   boost,   94.14,  97717.00,  304.76,    6.08,     NaN, 36.2, 4.12, 4.11, 4.12,   0.00,   0.00,   0.00,  66.16,  66.29,   0.00,   0.00,   0.00,   0.00,    NaN, 4.11, 0.00, 0.00, 0.00, 0.00, 1, 1, 11,  47.9868668, -81.8484808,   368.0, 2025,  8, 21, 18, 11, 46,        0,        0,   0,   0,   1.5,   0.8,   1.2,  0, 39,  0,  0,  0,  0,  0, 36,  0, 35,  0,  0,  0,  9, 38,  0,  0, 31,  0,  0,  0, 35, 32, 35,  0,  0, 32,  0,  0,  0,  0, 34
6, 6583, 5,,     0.38, 3,   boost,   90.71,  97690.00,  307.08,    8.40,     NaN, 36.2, 4.12, 4.11, 4.12,   0.00,   0.00,   0.00,  66.16,  66.29,   0.00,   0.00,   0.00,   0.00,    NaN, 4.11, 0.00, 0.00, 0.00, 0.00, 1, 1, 11,  47.9868668, -81.8484808,   368.0, 2025,  8, 21, 18, 11, 46,        0,        0,   0,   0,   1.5,   0.8,   1.2,  0, 39,  0,  0,  0,  0,  0, 36,  0, 35,  0,  0,  0,  9, 38,  0,  0, 31,  0,  0,  0, 35, 32, 35,  0,  0, 32,  0,  0,  0,  0, 34
6, 6583, 5,,     0.39, 3,   boost,   91.20,  97685.00,  307.51,    8.83,     NaN, 36.2, 4.12, 4.11, 4.12,   0.00,   0.00,   0.00,  66.16,  66.29,   0.00,   0.00,   0.00,   0.00,    NaN, 4.11, 0.00, 0.00, 0.00, 0.00, 1, 1, 11,  47.9868668, -81.8484808,   368.0, 2025,  8, 21, 18, 11, 46,        0,        0,   0,   0,   1.5,   0.8,   1.2,  0, 39,  0,  0,  0,  0,  0, 36,  0, 35,  0,  0,  0,  9, 38,  0,  0, 31,  0,  0,  0, 35, 32, 35,  0,  0, 32,  0,  0,  0,  0, 34
6, 6583, 5,,     0.40, 3,   boost,   92.18,  97687.00,  307.34,    8.66,     NaN, 36.3, 4.12, 4.11, 4.12,   0.00,   0.00,   0.00,  66.16,  66.29,   0.00,   0.00,   0.00,   0.00,    NaN, 4.11, 0.00, 0.00, 0.00, 0.00, 1, 1, 11,  47.9868668, -81.8484808,   368.0, 2025,  8, 21, 18, 11, 46,        0,        0,   0,   0,   1.5,   0.8,   1.2,  0, 39,  0,  0,  0,  0,  0, 36,  0, 35,  0,  0,  0,  9, 38,  0,  0, 31,  0,  0,  0, 35, 32, 35,  0,  0, 32,  0,  0,  0,  0, 34
6, 6583, 5,,     0.41, 3,   boost,   91.69,  97688.00,  307.25,    8.57,     NaN, 36.3, 4.12, 4.11, 4.12,   0.00,   0.00,   0.00,  66.16,  66.29,   0.00,   0.00,   0.00,   0.00,    NaN, 4.11, 0.00, 0.00, 0.00, 0.00, 1, 1, 11,  47.9868668, -81.8484808,   368.0, 2025,  8, 21, 18, 11, 46,        0,        0,   0,   0,   1.5,   0.8,   1.2,  0, 39,  0,  0,  0,  0,  0, 36,  0, 35,  0,  0,  0,  9, 38,  0,  0, 31,  0,  0,  0, 35, 32, 35,  0,  0, 32,  0,  0,  0,  0, 34
6, 6583, 5,,     0.42, 3,   boost,   89.73,  97693.00,  306.82,    8.14,     NaN, 36.2, 4.12, 4.11, 4.12,   0.00,   0.00,   0.00,  66.16,  66.29,   0.00,   0.00,   0.00,   0.00,    NaN, 4.11, 0.00, 0.00, 0.00, 0.00, 1, 1, 11,  47.9868668, -81.8484808,   368.0, 2025,  8, 21, 18, 11, 46,        0,        0,   0,   0,   1.5,   0.8,   1.2,  0, 39,  0,  0,  0,  0,  0, 36,  0, 35,  0,  0,  0,  9, 38,  0,  0, 31,  0,  0,  0, 35, 32, 35,  0,  0, 32,  0,  0,  0,  0, 34
6, 6583, 5,,     0.43, 3,   boost,   91.69,  97658.00,  309.82,   11.14,     NaN, 36.3, 4.12, 4.11, 4.12,   0.00,   0.00,   0.00,  66.16,  66.29,   0.00,   0.00,   0.00,   0.00,    NaN, 4.11, 0.00, 0.00, 0.00, 0.00, 1, 1, 11,  47.9868668, -81.8484808,   368.0, 2025,  8, 21, 18, 11, 46,        0,        0,   0,   0,   1.5,   0.8,   1.2,  0, 39,  0,  0,  0,  0,  0, 36,  0, 35,  0,  0,  0,  9, 38,  0,  0, 31,  0,  0,  0, 35, 32, 35,  0,  0, 32,  0,  0,  0,  0, 34
6, 6583, 5,,     0.44, 3,   boost,   91.69,  97665.00,  309.22,   10.54,     NaN, 36.3, 4.12, 4.11, 4.12,   0.00,   0.00,   0.00,  66.16,  66.29,   0.00,   0.00,   0.00,   0.00,    NaN, 4.11, 0.00, 0.00, 0.00, 0.00, 1, 1, 11,  47.9868668, -81.8484808,   368.0, 2025,  8, 21, 18, 11, 46,        0,        0,   0,   0,   1.5,   0.8,   1.2,  0, 39,  0,  0,  0,  0,  0, 36,  0, 35,  0,  0,  0,  9, 38,  0,  0, 31,  0,  0,  0, 35, 32, 35,  0,  0, 32,  0,  0,  0,  0, 34
6, 6583, 5,,     0.45, 3,   boost,   94.63,  97655.00,  310.08,   11.40,     NaN, 36.2, 4.12, 4.11, 4.12,   0.00,   0.00,   0.00,  66.16,  66.29,   0.00,   0.00,   0.00,   0.00,    NaN, 4.11, 0.00, 0.00, 0.00, 0.00, 1, 1, 11,  47.9868668, -81.8484808,   368.0, 2025,  8, 21, 18, 11, 46,        0,        0,   0,   0,   1.5,   0.8,   1.2,  0, 39,  0,  0,  0,  0,  0, 36,  0, 35,  0,  0,  0,  9, 38,  0,  0, 31,  0,  0,  0, 35, 32, 35,  0,  0, 32,  0,  0,  0,  0, 34
6, 6583, 5,,     0.46, 3,   boost,   89.73,  97663.00,  309.39,   10.71,     NaN, 36.3, 4.12, 4.11, 4.12,   0.00,   0.00,   0.00,  66.16,  66.29,   0.00,   0.00,   0.00,   0.00,    NaN, 4.11, 0.00, 0.00, 0.00, 0.00, 1, 1, 11,  47.9868668, -81.8484808,   368.0, 2025,  8, 21, 18, 11, 46,        0,        0,   0,   0,   1.5,   0.8,   1.2,  0, 39,  0,  0,  0,  0,  0, 36,  0, 35,  0,  0,  0,  9, 38,  0,  0, 31,  0,  0,  0, 35, 32, 35,  0,  0, 32,  0,  0,  0,  0, 34
6, 6583, 5,,     0.47, 3,   boost,   90.71,  97651.00,  310.42,   11.74,     NaN, 36.3, 4.12, 4.11, 4.12,   0.00,   0.00,   0.00,  66.16,  66.29,   0.00,   0.00,   0.00,   0.00,    NaN, 4.11, 0.00, 0.00, 0.00, 0.00, 1, 1, 11,  47.9868668, -81.8484808,   368.0, 2025,  8, 21, 18, 11, 46,        0,        0,   0,   0,   1.5,   0.8,   1.2,  0, 39,  0,  0,  0,  0,  0, 36,  0, 35,  0,  0,  0,  9, 38,  0,  0, 31,  0,  0,  0, 35, 32, 35,  0,  0, 32,  0,  0,  0,  0, 34
6, 6583, 5,,     0.48, 3,   boost,   95.61,  97635.00,  311.79,   13.12,     NaN, 36.3, 4.12, 4.11, 4.12,   0.00,   0.00,   0.00,  66.16,  66.29,   0.00,   0.00,   0.00,   0.00,    NaN, 4.11, 0.00, 0.00, 0.00, 0.00, 1, 1, 11,  47.9868668, -81.8484808,   368.0, 2025,  8, 21, 18, 11, 46,        0,        0,   0,   0,   1.5,   0.8,   1.2,  0, 39,  0,  0,  0,  0,  0, 36,  0, 35,  0,  0,  0,  9, 38,  0,  0, 31,  0,  0,  0, 35, 32, 35,  0,  0, 32,  0,  0,  0,  0, 34
6, 6583, 5,,     0.49, 3,   boost,   95.12,  97648.00,  310.68,   12.00,     NaN, 36.3, 4.12, 4.11, 4.12,   0.00,   0.00,   0.00,  66.16,  66.29,   0.00,   0.00,   0.00,   0.00,    NaN, 4.11, 0.00, 0.00, 0.00, 0.00, 1, 1, 11,  47.9868668, -81.8484808,   368.0, 2025,  8, 21, 18, 11, 46,        0,        0,   0,   0,   1.5,   0.8,   1.2,  0, 39,  0,  0,  0,  0,  0, 36,  0, 35,  0,  0,  0,  9, 38,  0,  0, 31,  0,  0,  0, 35, 32, 35,  0,  0, 32,  0,  0,  0,  0, 34
6, 6583, 5,,     0.50, 3,   boost,   95.12,  97607.00,  314.20,   15.52,     NaN, 36.3, 4.12, 4.11, 4.12,   0.00,   0.00,   0.00,  66.16,  66.29,   0.00,   0.00,   0.00,   0.00,    NaN, 4.11, 0.00, 0.00, 0.00, 0.00, 1, 1, 11,  47.9868668, -81.8484808,   368.0, 2025,  8, 21, 18, 11, 46,        0,        0,   0,   0,   1.5,   0.8,   1.2,  0, 39,  0,  0,  0,  0,  0, 36,  0, 35,  0,  0,  0,  9, 38,  0,  0, 31,  0,  0,  0, 35, 32, 35,  0,  0, 32,  0,  0,  0,  0, 34
6, 6583, 5,,     0.51, 3,   boost,   92.67,  97644.00,  311.02,   12.34,     NaN, 36.3, 4.12, 4.11, 4.12,   0.00,   0.00,   0.00,  66.16,  66.29,   0.00,   0.00,   0.00,   0.00,    NaN, 4.11, 0.00, 0.00, 0.00, 0.00, 1, 1, 11,  47.9868668, -81.8484808,   368.0, 2025,  8, 21, 18, 11, 46,        0,        0,   0,   0,   1.5,   0.8,   1.2,  0, 39,  0,  0,  0,  0,  0, 36,  0, 35,  0,  0,  0,  9, 38,  0,  0, 31,  0,  0,  0, 35, 32, 35,  0,  0, 32,  0,  0,  0,  0, 34
6, 6583, 5,,     0.52, 3,   boost,   90.71,  97610.00,  313.94,   15.26,     NaN, 36.2, 4.12, 4.11, 4.12,   0.00,   0.00,   0.00,  66.16,  66.29,   0.00,   0.00,   0.00,   0.00,    NaN, 4.11, 0.00, 0.00, 0.00, 0.00, 1, 1, 11,  47.9868668, -81.8484808,   368.0, 2025,  8, 21, 18, 11, 46,        0,        0,   0,   0,   1.5,   0.8,   1.2,  0, 39,  0,  0,  0,  0,  0, 36,  0, 35,  0,  0,  0,  9, 38,  0,  0, 31,  0,  0,  0, 35, 32, 35,  0,  0, 32,  0,  0,  0,  0, 34
6, 6583, 5,,     0.53, 3,   boost,   93.16,  97642.00,  311.19,   12.52,     NaN, 36.3, 4.12, 4.11, 4.12,   0.00,   0.00,   0.00,  66.16,  66.29,   0.00,   0.00,   0.00,   0.00,    NaN, 4.11, 0.00, 0.00, 0.00, 0.00, 1, 1, 11,  47.9868668, -81.8484808,   368.0, 2025,  8, 21, 18, 11, 46,        0,        0,   0,   0,   1.5,   0.8,   1.2,  0, 39,  0,  0,  0,  0,  0, 36,  0, 35,  0,  0,  0,  9, 38,  0,  0, 31,  0,  0,  0, 35, 32, 35,  0,  0, 32,  0,  0,  0,  0, 34
6, 6583, 5,,     0.54, 3,   boost,   93.16,  97621.00,  313.00,   14.32,     NaN, 36.3, 4.12, 4.11, 4.12,   0.00,   0.00,   0.00,  66.16,  66.29,   0.00,   0.00,   0.00,   0.00,    NaN, 4.11, 0.00, 0.00, 0.00, 0.00, 1, 1, 11,  47.9868668, -81.8484808,   368.0, 2025,  8, 21, 18, 11, 46,        0,        0,   0,   0,   1.5,   0.8,   1.2,  0, 39,  0,  0,  0,  0,  0, 36,  0, 35,  0,  0,  0,  9, 38,  0,  0, 31,  0,  0,  0, 35, 32, 35,  0,  0, 32,  0,  0,  0,  0, 34
6, 6583, 5,,     0.55, 3,   boost,   96.11,  97605.00,  314.37,   15.69,     NaN, 36.3, 4.12, 4.11, 4.12,   0.00,   0.00,   0.00,  66.16,  66.29,   0.00,   0.00,   0.00,   0.00,    NaN, 4.11, 0.00, 0.00, 0.00, 0.00, 1, 1, 11,  47.9868668, -81.8484808,   368.0, 2025,  8, 21, 18, 11, 46,        0,        0,   0,   0,   1.5,   0.8,   1.2,  0, 39,  0,  0,  0,  0,  0, 36,  0, 35,  0,  0,  0,  9, 38,  0,  0, 31,  0,  0,  0, 35, 32, 35,  0,  0, 32,  0,  0,  0,  0, 34
6, 6583, 5,,     0.56, 3,   boost,   93.65,  97606.00,  314.28,   15.60,     NaN, 36.2, 4.12, 4.11, 4.12,   0.00,   0.00,   0.00,  66.16,  66.29,   0.00,   0.00,   0.00,   0.00,    NaN, 4.11, 0.00, 0.00, 0.00, 0.00, 1, 1, 11,  47.9868668, -81.8484808,   368.0, 2025,  8, 21, 18, 11, 46,        0,        0,   0,   0,   1.5,   0.8,   1.2,  0, 39,  0,  0,  0,  0,  0, 36,  0, 35,  0,  0,  0,  9, 38,  0,  0, 31,  0,  0,  0, 35, 32, 35,  0,  0, 32,  0,  0,  0,  0, 34
6, 6583, 5,,     0.57, 3,   boost,   96.60,  97595.00,  315.23,   16.55,     NaN, 36.2, 4.12, 4.11, 4.12,   0.00,   0.00,   0.00,  66.16,  66.29,   0.00,   0.00,   0.00,   0.00,    NaN, 4.11, 0.00, 0.00, 0.00, 0.00, 1, 1, 11,  47.9868668, -81.8484808,   368.0, 2025,  8, 21, 18, 11, 46,        0,        0,   0,   0,   1.5,   0.8,   1.2,  0, 39,  0,  0,  0,  0,  0, 36,  0, 35,  0,  0,  0,  9, 38,  0,  0, 31,  0,  0,  0, 35, 32, 35,  0,  0, 32,  0,  0,  0,  0, 34
6, 6583, 5,,     0.58, 3,   boost,   96.60,  97603.00,  314.54,   15.86,     NaN, 36.3, 4.12, 4.11, 4.12,   0.00,   0.00,   0.00,  66.16,  66.29,   0.00,   0.00,   0.00,   0.00,    NaN, 4.11, 0.00, 0.00, 0.00, 0.00, 1, 1, 11,  47.9868668, -81.8484808,   368.0, 2025,  8, 21, 18, 11, 46,        0,        0,   0,   0,   1.5,   0.8,   1.2,  0, 39,  0,  0,  0,  0,  0, 36,  0, 35,  0,  0,  0,  9, 38,  0,  0, 31,  0,  0,  0, 35, 32, 35,  0,  0, 32,  0,  0,  0,  0, 34
6, 6583, 5,,     0.59, 3,   boost,   95.61,  97586.00,  316.00,   17.32,     NaN, 36.3, 4.12, 4.11, 4.12,   0.00,   0.00,   0.00,  66.16,  66.29,   0.00,   0.00,   0.00,   0.00,    NaN, 4.11, 0.00, 0.00, 0.00, 0.00, 1, 1, 11,  47.9868668, -81.8484808,   368.0, 2025,  8, 21, 18, 11, 46,        0,        0,   0,   0,   1.5,   0.8,   1.2,  0, 39,  0,  0,  0,  0,  0, 36,  0, 35,  0,  0,  0,  9, 38,  0,  0, 31,  0,  0,  0, 35, 32, 35,  0,  0, 32,  0,  0,  0,  0, 34
